,City,Lat,Lng,Max Temp,Humidity,Cloudiness,Wind Speed,Country,Date
0,Abramovka,51.19,41.02,62.51,30,100,20.45,RU,1601447405
1,Abu Dhabi,24.47,54.37,95.0,17,0,11.41,AE,1601447405
2,Abu Kamal,34.45,40.92,88.84,22,0,8.25,SY,1601447406
3,Acaraú,-2.89,-40.12,78.69,73,87,16.75,BR,1601447406
4,Adrar,20.5,-10.07,84.9,29,0,10.74,MR,1601447407
5,Agogo,6.8,-1.08,70.59,100,100,3.98,GH,1601447408
6,Ahipara,-35.17,173.17,52.11,75,0,6.73,NZ,1601447408
7,Airai,-8.93,125.41,76.14,52,89,5.35,TL,1601447181
8,Aitape,-3.14,142.35,83.73,74,99,6.73,PG,1601447409
9,Aklavik,68.22,-135.01,37.4,86,20,4.7,CA,1601447410
10,Sittwe,20.15,92.9,86.16,73,13,11.86,MM,1601447410
11,Albany,42.6,-73.97,57.0,100,90,3.36,US,1601447136
12,Oleksandrivka,46.84,32.76,62.6,93,75,3.44,UA,1601447411
13,Alice Springs,-23.7,133.88,84.2,21,0,10.29,AU,1601447411
14,Alofi,-19.06,-169.92,77.0,88,0,5.82,NU,1601447411
15,Alta Floresta,-9.88,-56.09,76.28,56,100,3.18,BR,1601447412
16,Amahai,-3.33,128.92,76.84,88,100,6.93,ID,1601447412
17,Amapá,1.0,-52.0,70.97,99,36,1.52,BR,1601447412
18,Ambon City,-3.7,128.18,86.0,74,40,5.82,ID,1601447413
19,Amga,60.9,131.96,47.52,53,64,0.81,RU,1601447413
20,Amherst,41.4,-82.22,54.0,75,40,6.93,US,1601447407
21,Ampanihy,-24.7,44.75,77.04,61,89,10.69,MG,1601447414
22,Ancud,-41.87,-73.82,39.99,86,57,5.82,CL,1601447390
23,Andenes,69.31,16.12,50.0,100,90,8.05,NO,1601447414
24,Ankang,32.68,109.02,77.41,56,98,7.38,CN,1601447415
25,Antalaha,-14.9,50.28,78.49,77,74,6.85,MG,1601447415
26,Antofagasta,-23.65,-70.4,57.2,82,90,8.05,CL,1601447415
27,Aquiraz,-3.9,-38.39,78.8,74,40,14.99,BR,1601447416
28,Araouane,18.9,-3.53,90.52,19,4,6.64,ML,1601447340
29,Ariquemes,-9.91,-63.04,74.66,90,94,2.01,BR,1601447416
30,Arlit,18.74,7.39,92.82,11,0,2.86,NE,1601447416
31,Arraial do Cabo,-22.97,-42.03,72.79,91,36,10.27,BR,1601447417
32,Asău,46.43,26.4,51.01,93,100,9.75,RO,1601447170
33,Atuona,-9.8,-139.03,78.69,75,3,22.66,PF,1601447418
34,Auchi,7.07,6.27,73.36,95,100,2.82,NG,1601447450
35,Auki,-8.77,160.7,81.64,80,37,6.78,SB,1601447450
36,Avarua,-21.21,-159.78,75.2,88,11,19.46,CK,1601447451
37,Avera,33.19,-82.53,57.2,71,1,8.05,US,1601447451
38,Aykhal,66.0,111.5,30.2,50,20,6.71,RU,1601447274
39,Bac Lieu,9.29,105.72,89.85,62,71,11.39,VN,1601447368
40,Baijiantan,45.63,85.18,59.07,33,0,10.49,CN,1601447452
41,Bairiki Village,1.33,172.98,82.4,78,20,9.17,KI,1601447452
42,Balabac,7.99,117.06,85.23,71,4,8.97,PH,1601447452
43,Balakhta,55.38,91.6,40.59,65,99,4.99,RU,1601447453
44,Balikpapan,-1.27,116.83,84.49,68,51,9.33,ID,1601447453
45,Balkhash,46.84,74.98,50.0,31,0,22.37,KZ,1601447453
46,Balyaga,51.15,108.92,49.78,49,100,10.36,RU,1601447454
47,Bambanglipuro,-7.95,110.28,88.0,50,41,15.43,ID,1601447454
48,Bambous Virieux,-20.34,57.76,75.2,78,75,12.75,MU,1601447455
49,Banda Aceh,5.56,95.32,85.03,67,75,7.87,ID,1601447455
50,Bandarbeyla,9.49,50.81,82.09,66,65,20.31,SO,1601447271
51,Bandi̇̄pur,27.93,84.42,80.89,70,31,3.44,NP,1601447456
52,Banepā,27.63,85.52,84.2,58,40,4.7,NP,1601447456
53,Baoqing,46.33,132.21,57.49,54,9,7.2,CN,1601447456
54,Bara,10.37,10.73,72.5,88,100,8.41,NG,1601447457
55,Barcelos,41.54,-8.62,55.99,100,0,3.24,PT,1601447457
56,Barra,-11.09,-43.14,71.83,64,0,7.56,BR,1601447457
57,Barrow,71.29,-156.79,32.0,98,90,10.29,US,1601447402
58,Batagay-Alyta,67.8,130.41,33.13,77,100,16.35,RU,1601447458
59,Bathsheba,13.22,-59.52,82.4,83,20,25.28,BB,1601447458
60,Båtsfjord,70.63,29.72,50.0,87,75,4.7,NO,1601447458
61,Beba,22.44,-79.73,75.2,94,40,2.24,CU,1601447459
62,Begūn,24.98,75.0,90.9,36,15,6.26,IN,1601447459
63,Beïnamar,8.67,15.38,72.54,94,100,3.22,TD,1601447459
64,Belaya Glina,46.07,40.86,68.0,35,100,27.65,RU,1601447459
65,Beloha,-25.17,45.05,77.95,62,98,12.59,MG,1601447460
66,Belyy Yar,53.6,91.39,44.6,45,20,8.95,RU,1601447460
67,Bengkulu,-3.8,102.27,87.87,59,0,13.96,ID,1601447461
68,Bereda,43.27,-7.54,50.0,100,71,1.74,ES,1601447461
69,Beringovskiy,63.05,179.32,40.78,76,0,5.21,RU,1601447462
70,Berlevåg,70.86,29.09,50.0,87,75,6.93,NO,1601447462
71,Bethel,41.37,-73.41,70.0,98,100,1.99,US,1601447351
72,Bhādra,29.12,75.17,98.62,14,0,9.13,IN,1601447462
73,Bicester,51.9,-1.15,48.0,100,100,1.12,GB,1601447463
74,Bichura,50.59,107.6,48.67,54,100,11.86,RU,1601447463
75,Bilibino,68.05,166.44,32.58,91,91,3.2,RU,1601447463
76,Bilma,18.69,12.92,89.11,12,28,11.41,NE,1601447464
77,Birjand,32.87,59.22,62.6,13,40,4.7,IR,1601447464
78,Blind River,46.18,-82.96,51.8,81,75,5.82,CA,1601447464
79,Bluff,-46.6,168.33,48.99,84,93,5.99,NZ,1601447465
80,Boa Vista,2.82,-60.67,78.8,74,53,4.7,BR,1601447465
81,Bodden Town,19.28,-81.25,82.99,82,85,8.12,KY,1601447465
82,Bodmin,50.47,-4.72,55.4,93,100,17.22,GB,1601447465
83,Bogatynia,50.91,14.96,52.0,92,62,4.52,PL,1601447466
84,Boguchany,58.38,97.45,41.47,60,30,7.14,RU,1601447466
85,Bom Jesus,-9.07,-44.36,72.46,46,0,2.68,BR,1601447467
86,Mumbai,19.01,72.85,87.8,62,40,6.93,IN,1601447400
87,Bonavista,48.65,-53.11,60.96,92,85,15.32,CA,1601447467
88,Bontang,0.13,117.5,83.93,70,5,8.08,ID,1601447412
89,Bourail,-21.57,165.48,66.49,68,38,13.51,NC,1601447468
90,Brae,60.4,-1.35,51.8,81,20,21.92,GB,1601447468
91,Bredasdorp,-34.53,20.04,51.8,87,19,2.24,ZA,1601447185
92,Broken Hill,-31.95,141.43,69.8,43,54,16.11,AU,1601447354
93,Distrikt Brokopondo,4.75,-55.17,77.34,84,100,6.38,SR,1601447469
94,Buala,-8.14,159.59,82.11,73,47,4.29,SB,1601447469
95,Bukachacha,52.98,116.92,52.11,46,48,4.54,RU,1601447469
96,Buluang,13.31,123.34,87.06,66,100,5.21,PH,1601447470
97,Bundibugyo,0.74,30.04,76.55,65,97,3.42,UG,1601447470
98,Buraidah,26.33,43.98,86.0,30,0,5.82,SA,1601447281
99,Burnie,-41.07,145.92,55.0,89,100,13.0,AU,1601447241
100,Busselton,-33.65,115.33,64.0,80,100,4.0,AU,1601447471
101,Butaritari,3.07,172.79,82.35,76,0,10.42,KI,1601447472
102,Cabo San Lucas,22.89,-109.91,82.0,69,0,1.66,MX,1601447472
103,Caconda,-13.73,15.07,73.26,40,100,2.44,AO,1601447472
104,Calabozo,8.92,-67.43,73.09,95,6,3.89,VE,1601447473
105,Calama,-22.47,-68.93,42.8,28,0,18.34,CL,1601447473
106,Calceta,-0.85,-80.17,71.6,83,90,11.41,EC,1601447473
107,Camaçari,-12.7,-38.32,77.0,78,40,10.29,BR,1601447474
108,Canala,-21.53,165.95,69.8,56,89,23.04,NC,1601447474
109,Canutama,-6.53,-64.38,72.5,94,100,0.22,BR,1601447474
110,Cap Malheureux,-19.98,57.61,75.0,70,19,10.0,MU,1601447464
111,Cape Coast,5.11,-1.25,76.37,90,100,9.26,GH,1601447475
112,Cape Town,-33.93,18.42,60.01,71,27,3.36,ZA,1601447222
113,Carandaí,-20.95,-43.81,64.09,95,20,5.19,BR,1601447475
114,Caravelas,-17.71,-39.25,71.65,91,26,4.47,BR,1601447476
115,Carinhanha,-14.3,-43.77,71.85,58,0,6.38,BR,1601447476
116,Carlton,45.29,-123.18,60.01,93,1,1.59,US,1601447476
117,Carnarvon,-24.87,113.63,75.2,64,0,20.8,AU,1601447477
118,Carutapera,-1.2,-46.02,77.67,84,0,8.59,BR,1601447477
119,Castro,-24.79,-50.01,61.16,91,11,3.44,BR,1601447466
120,Catanduva,-21.14,-48.97,80.6,32,35,5.82,BR,1601447259
121,Cayenne,4.93,-52.33,73.4,100,20,5.95,GF,1601447406
122,Chabahar,25.29,60.64,89.6,62,20,11.41,IR,1601447478
123,Champerico,14.3,-91.92,64.99,96,99,4.54,GT,1601447478
124,Charleston,32.78,-79.93,62.6,93,20,6.93,US,1601447233
125,Charters Towers,-20.1,146.27,82.51,35,0,14.09,AU,1601447479
126,Cherskiy,68.75,161.3,41.83,67,62,10.36,RU,1601447479
127,Chhātak,25.03,91.67,92.62,59,88,2.8,BD,1601447480
128,Chicama,-7.84,-79.15,63.27,78,96,3.91,PE,1601447480
129,Chimbote,-9.09,-78.58,60.37,89,99,6.64,PE,1601447480
130,Chingirlau,51.09,54.08,64.62,39,0,8.86,KZ,1601447481
131,Chiredzi,-21.05,31.67,69.66,85,100,9.84,ZW,1601447481
132,Chlórakas,34.8,32.41,80.6,74,0,13.87,CY,1601447481
133,Chokurdakh,70.63,147.92,42.21,96,100,10.45,RU,1601447420
134,Christchurch,-43.53,172.63,55.4,37,0,5.82,NZ,1601447212
135,Chui,-33.7,-53.46,51.04,94,0,4.68,UY,1601447361
136,Cidreira,-30.18,-50.21,61.54,93,90,7.2,BR,1601447482
137,Ciudad Bolivar,8.12,-63.55,76.5,86,51,8.5,VE,1601447482
138,Clearwater,27.97,-82.8,69.8,72,90,8.05,US,1601447427
139,Clemson,34.68,-82.84,53.01,81,1,9.17,US,1601447420
140,Clyde River,70.47,-68.59,26.6,92,90,12.75,CA,1601447430
141,Cockburn Town,21.46,-71.14,84.24,77,100,17.83,TC,1601447483
142,Codrington,-38.27,141.97,55.17,87,100,12.71,AU,1601447484
143,Colinas,-6.03,-44.25,74.08,82,96,0.74,BR,1601447484
144,Collie,-33.37,116.15,61.0,78,100,13.0,AU,1601447484
145,Comodoro Rivadavia,-45.87,-67.5,39.2,59,0,13.87,AR,1601447485
146,Concarneau,47.88,-3.92,59.0,100,90,6.93,FR,1601447485
147,Constantine,36.37,6.61,62.6,48,14,2.24,DZ,1601447485
148,Coquimbo,-29.95,-71.34,48.2,81,0,6.93,CL,1601447407
149,Corn Island,12.17,-83.04,83.26,75,2,5.93,NI,1601447486
150,Coruripe,-10.13,-36.18,73.06,81,31,9.24,BR,1601447486
151,Cran-Gevrier,45.9,6.1,51.8,93,90,2.24,FR,1601447282
152,Cururupu,-1.83,-44.87,78.66,77,95,6.67,BR,1601447487
153,Dalbandin,28.89,64.41,81.18,16,0,4.72,PK,1601447487
154,Darhan,49.49,105.92,48.31,52,100,25.88,MN,1601447487
155,Daru,-9.08,143.21,78.12,77,99,16.58,PG,1601447488
156,Dawei,14.08,98.2,80.15,86,98,4.32,MM,1601447488
157,Deputatsky,69.3,139.9,32.27,83,0,25.68,RU,1601447489
158,Dhidhdhoo,6.88,73.1,82.06,74,82,12.5,MV,1601447489
159,Diamantino,-14.41,-56.45,77.56,32,100,5.17,BR,1601447309
160,Diego de Almagro,-26.37,-70.05,47.8,64,0,1.9,CL,1601447490
161,Dikson,73.51,80.55,35.94,81,98,11.9,RU,1601447490
162,Djambala,-2.54,14.75,69.46,90,95,5.32,CG,1601447490
163,Dmitriyevka,54.75,55.33,46.4,100,40,4.47,RU,1601447491
164,Dobryanka,58.46,56.42,44.6,100,75,2.24,RU,1601447491
165,Dodola,6.98,39.18,62.49,73,19,1.14,ET,1601447491
166,Dolores,-36.31,-57.68,52.45,95,0,7.05,AR,1601447491
167,Douglas,41.3,-96.17,61.0,76,1,3.89,US,1601447492
168,Dryden,49.78,-92.75,39.2,100,90,6.93,CA,1601447492
169,Dudinka,69.41,86.18,30.2,86,40,17.9,RU,1601447492
170,Dunedin,-45.87,170.5,51.01,66,97,5.99,NZ,1601447257
171,East London,-33.02,27.91,60.8,59,0,8.05,ZA,1601447493
172,Edd,13.93,41.69,95.52,41,71,8.72,ER,1601447493
173,Ejura,7.39,-1.36,72.41,97,100,4.07,GH,1601447494
174,Ekibastuz,51.67,75.37,46.2,50,0,5.32,KZ,1601447494
175,El Triunfo,-1.93,-79.97,71.6,78,75,12.75,EC,1601447495
176,Esmeraldas,-19.76,-44.31,75.2,53,33,6.93,BR,1601447273
177,Esna,25.29,32.55,77.0,27,0,5.68,EG,1601447495
178,‘Ewa Beach,21.32,-158.01,80.01,65,40,3.36,US,1601447302
179,Ewo,-0.87,14.82,76.41,79,17,7.7,CG,1601447496
180,Faanui,-16.48,-151.75,78.71,78,12,23.2,PF,1601447211
181,Farah,32.5,62.5,64.31,28,100,5.7,AF,1601447496
182,Fasa,28.94,53.65,77.0,41,20,6.93,IR,1601447497
183,Fatehpur,25.93,80.8,92.41,32,0,7.56,IN,1601447497
184,Fayaoué,-20.65,166.53,70.34,72,0,25.88,NC,1601447497
185,Flinders,-34.58,150.86,62.01,85,100,8.01,AU,1601447498
186,Fort Nelson,58.81,-122.7,35.6,80,5,2.24,CA,1601447498
187,Fortuna,40.6,-124.16,59.0,100,90,4.7,US,1601447427
188,Fram,-26.98,-55.88,71.87,70,1,3.94,PY,1601447499
189,Frontera,26.93,-101.45,68.0,32,0,1.99,MX,1601447499
190,Frutal,-20.02,-48.94,78.44,28,0,2.39,BR,1601447499
191,Fukuechō,32.69,128.84,73.4,69,20,17.22,JP,1601447499
192,Galesong,-5.32,119.37,89.6,59,40,13.87,ID,1601447500
193,Gamba,-2.65,10.0,76.89,69,100,0.83,GA,1601447500
194,Gamboula,4.12,15.14,71.4,92,18,4.36,CF,1601447501
195,Gangelt,50.98,6.0,57.99,93,75,3.36,DE,1601447501
196,Gari,59.43,62.35,56.53,70,2,4.74,RU,1601447501
197,Garissa,-0.45,39.64,83.82,51,63,16.98,KE,1601447501
198,Gaspar,-26.93,-48.96,64.99,94,58,1.3,BR,1601447502
199,Kiryat Gat,31.61,34.76,81.0,40,0,1.01,IL,1601447404
200,Gayny,60.31,54.32,55.31,72,99,2.51,RU,1601447502
201,George Town,5.41,100.34,86.0,70,20,4.7,MY,1601447341
202,Geraldton,-28.77,114.6,73.4,49,0,12.75,AU,1601447468
203,Gerāsh,27.67,54.14,84.2,42,0,6.93,IR,1601447503
204,Ginir,7.13,40.7,67.59,73,99,10.76,ET,1601447504
205,Gomel,52.43,30.98,55.4,62,75,15.66,BY,1601447504
206,Gorno-Altaysk,51.96,85.95,36.1,86,100,5.12,RU,1601447504
207,Grand Gaube,-20.01,57.66,75.0,70,19,10.0,MU,1601447504
208,Grand-Lahou,5.14,-5.02,75.92,92,84,9.33,CI,1601447505
209,Greymouth,-42.47,171.2,45.16,74,0,1.99,NZ,1601447506
210,Guararé,7.82,-80.28,77.58,83,100,5.64,PA,1601447506
211,Guerrero Negro,27.98,-114.06,79.32,50,0,4.7,MX,1601447506
212,Guozhen,34.37,107.36,71.69,58,97,2.42,CN,1601447507
213,Gurupi,-11.73,-49.07,78.64,31,0,0.56,BR,1601447507
214,Haines Junction,60.75,-137.51,40.01,81,100,2.33,CA,1601447287
215,Half Moon Bay,37.46,-122.43,61.0,100,90,5.82,US,1601447507
216,Hamada,34.88,132.08,73.4,73,40,6.93,JP,1601447508
217,Hambantota,6.12,81.12,82.4,83,75,12.75,LK,1601447508
218,Kumul,42.8,93.45,61.41,26,0,1.23,CN,1601447508
219,Hamilton,39.18,-84.53,48.99,93,1,6.98,US,1601447271
220,Hasaki,35.73,140.83,80.01,64,40,11.41,JP,1601447509
221,Haverfordwest,51.8,-4.97,57.0,93,100,35.57,GB,1601447510
222,Havre-St-Pierre,50.23,-63.6,57.2,100,90,4.7,CA,1601447510
223,Hearst,49.68,-83.67,46.56,96,100,1.52,CA,1601447510
224,Gemeente Heerenveen,52.95,5.93,55.99,1,10,5.99,NL,1601447510
225,Hefei,31.86,117.28,80.6,47,40,6.71,CN,1601447511
226,Henties Bay,-22.12,14.28,54.0,87,1,5.01,NA,1601447220
227,Herat Province,34.5,62.0,59.0,26,0,5.82,AF,1601447511
228,Hermanus,-34.42,19.23,55.99,80,88,1.99,ZA,1601447512
229,Hilo,19.73,-155.09,78.8,78,20,4.7,US,1601447487
230,Hirado,33.36,129.55,78.8,57,40,12.75,JP,1601447512
231,Hirara,24.8,125.28,80.6,69,75,13.87,JP,1601447512
232,Hithadhoo,-0.6,73.08,83.53,67,100,6.24,MV,1601447513
233,Hobart,-42.88,147.33,63.0,55,75,13.87,AU,1601447305
234,Hobyo,5.35,48.53,83.35,63,0,14.16,SO,1601447513
235,Hokitika,-42.72,170.97,46.44,70,1,2.37,NZ,1601447514
236,Houlton,46.13,-67.84,66.2,88,90,9.17,US,1601447514
237,Hualmay,-11.1,-77.61,60.64,87,98,8.39,PE,1601447514
238,Huarmey,-10.07,-78.15,61.38,86,98,7.09,PE,1601447515
239,Hūn,29.13,15.95,75.81,67,0,6.8,LY,1601447515
240,Ibirité,-20.02,-44.06,75.2,44,0,8.05,BR,1601447515
241,Ilhabela,-23.78,-45.36,72.28,89,89,7.63,BR,1601447516
242,Ilulissat,69.22,-51.1,26.6,73,97,6.93,GL,1601447517
243,Imeni Morozova,59.98,31.04,53.01,99,100,4.27,RU,1601447517
244,Inhambane,-23.86,35.38,77.0,73,40,4.7,MZ,1601447517
245,Inírida,3.87,-67.92,73.49,98,100,2.46,CO,1601447517
246,Inuvik,68.35,-133.72,37.4,86,20,4.7,CA,1601447518
247,Iqaluit,63.75,-68.51,28.4,68,90,10.29,CA,1601447246
248,Iranshahr,27.2,60.68,89.6,17,0,2.71,IR,1601447518
249,Isangel,-19.55,169.27,75.2,78,40,9.17,VU,1601447255
250,Iskateley,67.68,53.15,48.83,78,18,11.83,RU,1601447519
251,Itapeva,-23.98,-48.88,61.88,88,0,4.41,BR,1601447519
252,Itarema,-2.92,-39.92,78.91,72,87,17.29,BR,1601447519
253,Ivankiv,50.94,29.89,55.4,100,100,11.18,UA,1601447520
254,Jacareacanga,-6.22,-57.75,75.97,70,98,1.95,BR,1601447520
255,Jamestown,42.1,-79.24,51.01,100,90,4.7,US,1601447520
256,Jardim,-21.48,-56.14,76.17,49,0,2.62,BR,1601447520
257,Jeremoabo,-10.07,-38.48,63.73,93,9,7.76,BR,1601447235
258,Jesup,31.61,-81.89,59.0,87,1,4.7,US,1601447521
259,Jiazi,22.88,116.07,80.51,84,77,15.01,CN,1601447521
260,Jingdezhen,29.29,117.21,81.43,55,36,5.3,CN,1601447522
261,Jishou,28.32,109.72,66.72,88,100,4.25,CN,1601447522
262,Juneau,58.3,-134.42,48.99,87,90,3.36,US,1601447447
263,Juruti,-2.15,-56.09,79.29,68,0,4.16,BR,1601447523
264,Jutaí,-5.18,-68.9,71.98,96,100,2.01,BR,1601447523
265,Kaeo,-35.1,173.78,55.99,71,20,4.0,NZ,1601447524
266,Kagadi,0.96,30.8,73.36,67,92,5.32,UG,1601447524
267,Kaitangata,-46.28,169.85,50.0,65,97,4.0,NZ,1601447524
268,Kalanguy,51.02,116.52,53.83,42,100,7.02,RU,1601447525
269,Kalemie,-5.95,29.19,78.66,63,3,5.82,CD,1601447525
270,Kalmunai,7.42,81.82,88.47,56,99,4.16,LK,1601447525
271,Kanevskaya,46.08,38.96,65.79,51,100,19.44,RU,1601447526
272,Kangaatsiaq,68.31,-53.46,28.31,95,60,6.93,GL,1601447526
273,Kanungu,-0.96,29.79,70.88,70,100,3.4,UG,1601447526
274,Kapaa,22.08,-159.32,78.8,74,1,3.36,US,1601447527
275,Karangampel,-6.46,108.45,87.12,60,0,13.85,ID,1601447527
276,Karaton,-6.34,106.1,91.4,55,20,14.99,ID,1601447527
277,Karratha,-20.74,116.85,90.39,18,10,12.73,AU,1601447528
278,Kasama,-10.21,31.18,80.87,40,0,4.99,ZM,1601447528
279,Katherine,-14.47,132.27,100.4,16,75,11.41,AU,1601447529
280,Kathu,7.92,98.33,88.0,66,20,6.93,TH,1601447529
281,Katiola,8.13,-5.1,71.28,97,93,5.59,CI,1601447529
282,Katsuura,35.13,140.3,80.01,60,20,5.82,JP,1601447530
283,Kaura Namoda,12.59,6.58,76.6,77,0,8.55,NG,1601447530
284,Kavaratti,10.57,72.64,84.2,74,40,5.82,IN,1601447531
285,Kawalu,-7.38,108.21,83.79,63,20,7.11,ID,1601447531
286,Kaya,13.09,-1.08,78.96,74,97,12.12,BF,1601447531
287,Ketchikan,55.34,-131.65,50.0,93,1,4.7,US,1601447269
288,Key Largo,25.09,-80.45,82.99,1,0,5.08,US,1601447532
289,Key West,24.56,-81.78,82.0,88,75,3.36,US,1601447532
290,Khandagayty,50.73,92.05,45.28,54,100,8.79,RU,1601447532
291,Khāsh,28.22,61.22,72.3,21,25,6.42,IR,1601447533
292,Khatanga,71.97,102.5,30.54,95,97,14.43,RU,1601447533
293,Khorixas,-20.37,14.97,69.91,22,0,3.8,NA,1601447534
294,Khuldābād,20.05,75.18,81.14,58,90,9.17,IN,1601447534
295,Kibala,9.11,18.35,77.0,94,20,2.01,TD,1601447534
296,Kigali,-1.95,30.06,64.4,93,75,4.7,RW,1601447354
297,kimparana,12.83,-4.92,77.34,77,2,8.16,ML,1601447535
298,Kinablangan,7.69,126.55,85.37,69,13,6.51,PH,1601447535
299,Kirillov,59.86,38.38,48.2,93,75,2.24,RU,1601447279
300,Kitui,-1.37,38.01,75.87,49,0,9.31,KE,1601447536
301,Klaksvík,62.23,-6.59,50.0,93,100,29.97,FO,1601447536
302,Kloulklubed,7.04,134.26,84.2,74,75,8.05,PW,1601447537
303,Saint Paul Harbor,57.79,-152.41,46.4,93,90,29.97,US,1601447338
304,Kollam,8.88,76.6,86.0,79,75,2.24,IN,1601447537
305,Yangi Marg`ilon,40.43,71.72,57.2,58,40,6.93,UZ,1601447396
306,Korla,41.76,86.15,60.4,30,0,6.58,CN,1601447295
307,Koumac,-20.57,164.28,70.18,68,46,17.45,NC,1601447538
308,Krasnoyarskiy,51.97,59.9,57.07,67,38,8.25,RU,1601447538
309,Krosno Odrzańskie,52.05,15.1,53.01,40,10,3.98,PL,1601447539
310,Kuching,1.55,110.33,89.6,70,75,4.7,MY,1601447470
311,Kudat,6.88,116.85,87.8,70,20,8.05,MY,1601447539
312,Kulevcha,46.03,29.94,59.38,82,98,4.79,UA,1601447539
313,Kulhudhuffushi,6.62,73.07,82.0,75,84,12.5,MV,1601447540
314,Kumluca,36.37,30.29,81.84,38,0,3.89,TR,1601447540
315,Kungurtug,50.6,97.52,43.11,56,98,9.93,RU,1601447540
316,Kununurra,-15.77,128.73,66.2,77,90,49.44,AU,1601447541
317,Kushima,31.46,131.23,71.6,88,75,4.7,JP,1601447541
318,La Asuncion,11.03,-63.86,82.4,88,6,9.17,VE,1601447541
319,La Palma,33.85,-118.05,73.4,69,1,1.81,US,1601447362
320,Lady Lake,28.92,-81.92,64.4,93,90,6.93,US,1601447542
321,Laguna,38.42,-121.42,72.0,68,1,4.14,US,1601447384
322,Lahaina,20.88,-156.68,80.6,69,40,10.29,US,1601447414
323,Lake Charles,30.21,-93.2,59.0,87,1,4.47,US,1601447498
324,Lakhisarai,25.18,86.09,91.47,57,74,5.55,IN,1601447543
325,Lamu,-2.27,40.9,80.6,78,90,5.82,KE,1601447543
326,Laas,46.62,10.7,44.01,100,40,3.36,IT,1601447543
327,Lashma,54.93,41.14,57.72,53,100,9.4,RU,1601447544
328,Lata,40.16,-8.33,64.0,93,100,1.52,PT,1601447544
329,Lavrentiya,65.58,-171.0,33.96,89,0,1.74,RU,1601447380
330,Le Port,-20.94,55.29,78.8,69,75,18.34,RE,1601447544
331,Lebedyan',53.02,39.17,53.6,40,83,20.13,RU,1601447544
332,Lebu,-37.62,-73.65,45.28,80,91,10.89,CL,1601447545
333,Lensk,60.73,114.93,38.7,69,100,4.27,RU,1601447545
334,Leer,8.3,30.14,77.43,78,100,8.68,SS,1601447546
335,Lerwick,60.15,-1.15,51.8,81,20,21.92,GB,1601447546
336,Libertador General San Martín,-23.81,-64.79,66.0,57,0,1.01,AR,1601447546
337,Lima,-12.04,-77.03,62.6,77,90,12.75,PE,1601447543
338,Lingao,19.91,109.69,88.11,66,99,5.99,CN,1601447547
339,Linhares,-19.39,-40.07,71.8,90,54,2.33,BR,1601447547
340,Līsakovsk,52.54,62.49,56.01,59,13,6.64,KZ,1601447548
341,Lisiy Nos,60.02,30.02,53.6,87,90,6.71,RU,1601447548
342,Little Current,45.98,-81.92,51.8,81,75,5.82,CA,1601447548
343,Liuzhou,24.31,109.39,79.12,74,81,8.55,CN,1601447548
344,Llangefni,53.26,-4.31,55.99,93,100,33.33,GB,1601447548
345,Loikaw,19.67,97.21,83.75,62,69,3.27,MM,1601447549
346,Lokosovo,61.13,74.82,47.37,88,100,9.42,RU,1601447549
347,Lompoc,34.64,-120.46,57.2,93,90,8.14,US,1601447251
348,Longhua,23.61,114.19,82.22,81,69,5.44,CN,1601447550
349,Longview,32.5,-94.74,55.4,76,1,4.7,US,1601447550
350,Longyan,25.11,117.02,72.12,86,100,3.13,CN,1601447550
351,Longyearbyen,78.22,15.64,36.57,87,100,11.56,SJ,1601447551
352,Los Algarrobos,8.5,-82.43,64.0,92,100,1.74,PA,1601447551
353,Luanda,-8.84,13.23,73.4,83,75,8.05,AO,1601447318
354,Lüderitz,-26.65,15.16,60.55,52,0,19.06,NA,1601447552
355,Ludvika,60.15,15.19,52.0,100,0,2.44,SE,1601447552
356,Luganville,-15.53,167.17,80.6,74,75,6.93,VU,1601447552
357,Lukhovitsy,54.97,39.04,55.0,52,100,5.99,RU,1601447553
358,Luwingu,-10.26,29.93,83.55,40,58,3.6,ZM,1601447553
359,Lyubech,51.7,30.66,56.95,62,100,19.01,UA,1601447553
360,Mackenzie,55.3,-123.17,39.2,93,1,1.83,CA,1601447408
361,Madimba,-10.4,40.33,73.4,94,20,5.82,TZ,1601447554
362,Magistral'nyy,56.17,107.45,36.0,84,100,8.55,RU,1601447554
363,Mahébourg,-20.41,57.7,75.2,78,75,12.75,MU,1601447362
364,Mahibadhoo,3.78,72.97,82.72,74,100,8.52,MV,1601447555
365,Makakilo City,21.35,-158.09,80.01,65,40,3.36,US,1601447555
366,Malé,4.17,73.51,87.8,74,75,8.05,MV,1601447555
367,Manbij,36.53,37.95,77.0,44,0,13.31,SY,1601447555
368,Mandera,3.94,41.87,85.82,48,65,13.27,KE,1601447556
369,Mangaratiba,-22.96,-44.04,71.6,88,40,4.7,BR,1601447556
370,Manggar,-2.88,108.27,83.79,75,3,12.97,ID,1601447556
371,Manta,-0.95,-80.73,71.6,83,90,11.41,EC,1601447557
372,Manzhouli,49.6,117.43,53.74,42,100,9.73,CN,1601447557
373,Mar del Plata,-38.0,-57.56,53.6,87,29,10.29,AR,1601447339
374,Maraã,-1.83,-65.37,74.48,86,100,1.25,BR,1601447558
375,Marau,-28.45,-52.2,63.7,95,48,2.95,BR,1601447558
376,Marawi,8.0,124.29,84.0,79,90,7.0,PH,1601447558
377,Mareeba,-17.0,145.43,81.0,54,0,7.0,AU,1601447559
378,Margate,51.38,1.39,57.99,96,100,12.97,GB,1601447413
379,Marrakesh,31.63,-8.01,64.4,77,69,6.93,MA,1601447559
380,Marsaxlokk,35.84,14.54,73.0,83,20,2.24,MT,1601447559
381,Marzuq,14.4,46.47,85.57,21,18,3.4,YE,1601447560
382,Massaguet,12.48,15.44,75.2,94,20,8.05,TD,1601447560
383,Masvingo,-20.06,30.83,67.1,79,100,11.63,ZW,1601447560
384,Matamoros,25.53,-103.25,64.99,50,0,1.9,MX,1601447561
385,Mataura,-46.19,168.86,48.99,84,97,5.99,NZ,1601447561
386,Maţāy,28.42,30.78,91.94,29,0,15.23,EG,1601447561
387,Mbanza-Ngungu,-5.25,14.87,71.73,73,100,6.42,CD,1601447562
388,Mbekenyera,-10.0,38.98,87.06,34,85,7.14,TZ,1601447562
389,Makkah al Mukarramah,21.43,39.83,89.08,49,0,6.71,SA,1601447309
390,Mehamn,71.04,27.85,50.0,87,75,6.93,NO,1601447563
391,Merritt Island,28.54,-80.67,75.2,94,90,6.93,US,1601447435
392,Meulaboh,4.14,96.13,86.47,66,99,11.52,ID,1601447563
393,Meybod,32.25,54.02,68.0,22,75,2.64,IR,1601447563
394,Mildura,-34.2,142.15,64.4,55,75,12.75,AU,1601447564
395,Milton,34.13,-84.3,50.0,95,0,5.55,US,1601447407
396,Miranda,3.25,-76.23,68.0,88,75,3.36,CO,1601447565
397,Misratah,32.38,15.09,77.7,60,0,7.76,LY,1601447565
398,Mkushi,-13.62,29.39,82.6,29,6,9.4,ZM,1601447565
399,Mokhsogollokh,61.47,128.92,43.43,60,100,1.68,RU,1601447566
400,Monteagudo,-19.82,-63.98,62.13,67,0,1.92,BO,1601447566
401,Montepuez,-13.13,39.0,85.98,32,6,6.64,MZ,1601447567
402,Monterey,36.25,-121.25,66.0,93,90,3.67,US,1601447567
403,Moose Factory,51.26,-80.61,50.0,93,90,2.19,CA,1601447567
404,Morondava,-20.28,44.28,85.12,43,0,7.02,MG,1601447567
405,Mosquera,4.71,-74.23,51.8,81,75,5.82,CO,1601447567
406,Mount Gambier,-37.83,140.77,55.4,93,75,16.11,AU,1601447568
407,Mount Isa,-20.73,139.5,98.6,13,1,6.93,AU,1601447446
408,Moyale,3.52,39.06,66.51,83,100,7.99,KE,1601447568
409,Mpanda,-6.37,31.04,79.54,55,21,5.68,TZ,1601447569
410,Mtambile,-5.38,39.7,78.91,72,82,8.32,TZ,1601447569
411,Mūdbidri,13.08,74.98,84.2,70,40,11.41,IN,1601447570
412,Muisne,0.6,-80.03,72.9,86,100,9.31,EC,1601447570
413,Myitkyina,25.38,97.4,94.21,51,4,2.84,MM,1601447570
414,Myślibórz,52.92,14.87,51.01,99,13,1.99,PL,1601447571
415,Nacala,-14.54,40.67,80.6,65,20,6.93,MZ,1601447571
416,Namalenga,-10.95,39.1,86.36,38,86,5.95,TZ,1601447571
417,Mossamedes,-15.2,12.15,65.25,78,87,2.08,AO,1601447418
418,Nanortalik,60.14,-45.24,33.3,80,81,8.52,GL,1601447572
419,Narsaq,60.92,-46.05,28.4,46,51,8.05,GL,1601447572
420,Natchitoches,31.77,-93.13,51.8,100,1,3.71,US,1601447572
421,Naze,28.37,129.48,75.2,94,75,26.4,JP,1601447573
422,Necochea,-38.55,-58.74,54.0,82,3,4.0,AR,1601447426
423,Neuquén,-38.95,-68.06,57.2,40,41,12.75,AR,1601447422
424,New Norfolk,-42.78,147.06,62.01,56,100,5.01,AU,1601447574
425,Nikel,69.41,30.22,48.2,100,75,6.93,RU,1601447574
426,Nikolskoye,59.7,30.79,53.6,87,90,6.71,RU,1601447574
427,Nimāparha,20.07,86.02,84.2,94,75,8.05,IN,1601447574
428,Nioaque,-21.14,-55.83,78.44,43,0,3.27,BR,1601447575
429,Nishihara,26.18,127.76,78.8,88,90,23.04,JP,1601447575
430,Nogliki,51.83,143.17,54.48,75,6,6.71,RU,1601447576
431,Nome,64.5,-165.41,39.2,86,90,5.39,US,1601447576
432,Norman Wells,65.28,-126.83,35.6,83,40,3.36,CA,1601447576
433,North Branch,45.51,-92.98,48.99,91,98,4.0,US,1601447576
434,Noumea,-22.28,166.46,69.8,56,24,23.04,NC,1601447577
435,Novikovo,51.15,37.89,62.8,30,39,23.58,RU,1601447577
436,Novoil'insk,51.68,108.71,50.09,49,57,10.18,RU,1601447577
437,Novopokrovka,49.84,36.55,59.0,54,100,24.61,UA,1601447578
438,Novyy Urgal,51.07,132.56,53.65,47,0,2.21,RU,1601447578
439,Nsunga,-1.14,31.39,71.6,78,40,8.05,TZ,1601447578
440,Nuuk,64.18,-51.72,28.4,68,0,14.99,GL,1601447579
441,Nyakahanga,-1.6,31.14,78.57,51,53,0.74,TZ,1601447579
442,Ode,7.79,5.71,70.36,96,100,5.32,NG,1601447579
443,Okha,53.57,142.95,51.94,80,69,8.97,RU,1601447524
444,Okhotsk,59.38,143.3,48.81,70,100,4.29,RU,1601447580
445,Okoneshnikovo,54.84,75.08,47.66,52,91,10.2,RU,1601447580
446,Oleksandrivka,48.96,32.23,59.07,91,100,16.98,UA,1601447581
447,Olmos,-5.98,-79.75,62.01,87,98,2.8,PE,1601447581
448,Onguday,50.75,86.15,43.81,61,87,4.99,RU,1601447581
449,Onokhoy,51.93,108.07,50.0,53,75,15.66,RU,1601447582
450,Oriximiná,-1.77,-55.87,80.17,63,0,4.88,BR,1601447582
451,Orós,-6.24,-38.91,68.94,83,0,1.97,BR,1601447582
452,Ossora,59.24,163.07,42.4,91,1,1.25,RU,1601447583
453,Ostër,50.95,30.88,55.4,100,100,11.18,UA,1601447583
454,Ostrogozhsk,50.87,39.08,64.09,28,54,23.71,RU,1601447583
455,Ostrovnoy,68.05,39.51,49.6,76,16,15.28,RU,1601447583
456,Paamiut,61.99,-49.67,31.01,77,81,10.74,GL,1601447584
457,Pacific Grove,36.62,-121.92,59.0,93,90,6.53,US,1601447422
458,Padang,-0.95,100.35,84.79,69,83,3.62,ID,1601447584
459,Paita,-5.09,-81.11,61.11,86,46,8.93,PE,1601447585
460,Pamanukan,-6.28,107.81,90.09,51,0,14.83,ID,1601447585
461,Pangnirtung,66.15,-65.71,25.47,86,3,7.02,CA,1601447586
462,Pangody,65.85,74.49,43.47,72,100,7.94,RU,1601447529
463,Pareora,-44.49,171.21,51.01,47,81,3.0,NZ,1601447586
464,Pasni,25.26,63.47,88.61,36,0,6.29,PK,1601447587
465,Paso de los Toros,-32.82,-56.52,52.66,92,0,5.86,UY,1601447587
466,Pedasí,7.53,-80.03,78.98,81,100,5.5,PA,1601447587
467,Pemangkat,1.17,108.97,83.61,77,15,10.45,ID,1601447587
468,Pemberton,50.32,-122.8,54.0,89,0,0.96,CA,1601447374
469,Perevolotskiy,51.88,54.19,61.7,46,0,10.27,RU,1601447588
470,Petauke,-14.24,31.33,84.49,30,0,7.9,ZM,1601447588
471,Petropavlovsk-Kamchatskiy,53.05,158.65,53.6,87,6,4.47,RU,1601447588
472,Pevek,69.7,170.31,38.37,78,97,16.26,RU,1601447589
473,Phalaborwa,-23.94,31.14,64.4,72,100,12.41,ZA,1601447589
474,Piaçabuçu,-10.41,-36.43,73.63,80,18,9.93,BR,1601447589
475,Piet Retief,-27.01,30.81,53.29,88,99,4.5,ZA,1601447590
476,Pisco,-13.7,-76.22,62.6,82,90,3.36,PE,1601447418
477,Plotnikovo,55.02,85.94,42.8,52,37,6.71,RU,1601447590
478,Pokhara,28.23,83.98,81.84,63,60,4.18,NP,1601447591
479,Ponta do Sol,32.67,-17.1,68.0,77,75,8.05,PT,1601447591
480,Pontianak,-0.03,109.33,87.44,69,44,3.4,ID,1601447591
481,Port Alfred,-33.59,26.89,62.76,55,0,13.82,ZA,1601447592
482,Lüshunkou,38.8,121.27,66.2,34,0,13.42,CN,1601447592
483,Port Blair,11.67,92.75,85.21,73,3,19.24,IN,1601447592
484,Port Elizabeth,-33.92,25.57,57.2,67,0,6.93,ZA,1601447593
485,Port Hardy,50.7,-127.42,55.4,100,20,5.82,CA,1601447593
486,Port Keats,-14.25,129.55,85.14,66,38,9.91,AU,1601447594
487,Port Lincoln,-34.73,135.87,58.96,76,87,17.36,AU,1601447594
488,Port-Cartier,50.03,-66.87,57.2,100,90,5.91,CA,1601447594
489,Port-Gentil,-0.72,8.78,78.8,83,75,9.17,GA,1601447594
490,Portland,45.52,-122.68,66.2,77,75,1.59,US,1601446758
491,Porto-Novo,6.5,2.6,77.0,94,40,9.17,BJ,1601447595
492,Poum,-20.23,164.02,71.08,71,90,16.17,NC,1601447595
493,Praia,14.92,-23.51,77.0,83,20,11.41,CV,1601447596
494,Priiskovyy,51.93,116.63,57.63,37,17,2.86,RU,1601447596
495,Prince Rupert,54.32,-130.32,51.8,100,1,2.24,CA,1601447596
496,Puerto Ayora,-0.74,-90.35,66.99,91,93,5.99,EC,1601447597
497,Puerto Carreño,6.19,-67.49,76.82,91,75,4.72,CO,1601447597
498,Puerto Madryn,-42.77,-65.04,49.23,83,0,3.87,AR,1601447597
499,Punta Arenas,-53.15,-70.92,33.8,80,75,12.75,CL,1601447598
500,Qaanaaq,77.48,-69.36,14.16,78,0,7.0,GL,1601447400
501,Quelimane,-17.88,36.89,80.6,78,20,10.29,MZ,1601447598
502,Quesnel,53.0,-122.5,46.4,100,1,3.36,CA,1601447599
503,Ranfurly,-45.13,170.1,43.0,71,52,1.99,NZ,1601447599
504,Ravne,45.96,15.01,48.99,91,73,3.2,SI,1601447599
505,Rawson,-43.3,-65.1,46.62,91,99,11.3,AR,1601447421
506,Remedios,22.49,-79.55,75.2,94,40,2.24,CU,1601447600
507,Gemeente Rheden,52.02,6.05,55.4,100,54,3.36,NL,1601447600
508,Ribeira Grande,38.52,-28.7,60.8,82,20,4.7,PT,1601447600
509,Richards Bay,-28.78,32.04,65.97,70,94,2.39,ZA,1601447600
510,Rikitea,-23.12,-134.97,70.12,80,3,22.57,PF,1601447601
511,Rincon,32.3,-81.24,60.8,87,1,8.05,US,1601447354
512,Rio Branco,-9.97,-67.81,69.8,100,100,2.24,BR,1601447495
513,Río Cuarto,-33.13,-64.35,58.5,58,0,4.03,AR,1601447601
514,Rio Grande,-32.03,-52.1,51.01,96,0,4.65,BR,1601447602
515,Road Town,18.42,-64.62,82.99,87,28,14.0,VG,1601447376
516,Rocha,-34.48,-54.33,46.11,93,0,3.58,UY,1601447602
517,Arrondissement de Rochefort,45.92,-1.0,60.8,82,0,3.36,FR,1601447602
518,Rockingham,42.97,-71.1,70.0,83,100,1.01,US,1601447476
519,Rodrigues Alves,-7.74,-72.65,70.5,96,58,2.3,BR,1601447603
520,Roebourne,-20.78,117.13,90.07,21,0,14.18,AU,1601447603
521,Romny,50.75,33.47,60.64,41,100,20.85,UA,1601447603
522,Rosendal,59.99,6.01,53.01,95,100,1.99,NO,1601447603
523,Rosetta,31.4,30.42,77.0,83,0,6.93,EG,1601447604
524,Rūdbār,30.15,62.6,71.53,19,54,8.66,AF,1601447604
525,Rudnya,54.95,31.09,51.8,76,100,8.95,RU,1601447604
526,Rurrenabaque,-14.44,-67.53,71.28,83,0,2.21,BO,1601447605
527,Russellville,35.28,-93.13,52.0,93,1,2.37,US,1601447605
528,Sabang,5.89,95.32,82.56,71,11,3.24,ID,1601447605
529,Sabha,27.04,14.43,87.35,20,0,12.1,LY,1601447606
530,Saint Anthony,45.02,-93.22,53.01,81,1,5.01,US,1601447606
531,Saint George,37.1,-113.58,69.01,14,1,4.7,US,1601447462
532,St. George's,12.06,-61.75,80.6,88,40,11.41,GD,1601447606
533,Saint-Joseph,-21.37,55.62,78.8,57,29,6.93,RE,1601447607
534,Saint-Paul,-21.01,55.27,78.8,69,75,18.34,RE,1601447607
535,Saint-Philippe,-21.36,55.77,78.8,57,38,6.93,RE,1601447608
536,Saint-Pierre,-21.34,55.48,78.8,57,24,6.93,RE,1601447608
537,Sakakah,29.97,40.21,82.4,17,0,3.36,SA,1601447608
538,Salalah,17.02,54.09,82.4,65,20,6.93,OM,1601447609
539,Saldanha,-33.01,17.94,46.4,81,1,3.36,ZA,1601447609
540,Salinas,36.68,-121.66,59.0,93,90,1.32,US,1601447609
541,Salinópolis,-0.61,-47.36,78.31,85,3,10.29,BR,1601447610
542,Samaná,19.21,-69.34,77.43,85,100,4.65,DO,1601447610
543,Sambava,-14.27,50.17,78.55,72,82,9.42,MG,1601447610
544,Samfya,-11.36,29.56,81.48,38,29,6.85,ZM,1601447611
545,San Andrés,12.58,-81.7,82.4,83,75,4.7,CO,1601447506
546,San Jose,37.34,-121.89,64.4,77,20,5.82,US,1601447451
547,San Martín,-33.08,-68.47,64.4,22,0,5.82,AR,1601447612
548,San Policarpo,12.18,125.51,85.24,73,100,5.93,PH,1601447612
549,San Quintín,30.48,-115.95,75.83,54,0,5.1,MX,1601447612
550,San Ramon,37.78,-121.98,68.0,77,1,5.82,US,1601447613
551,San-Pédro,4.75,-6.64,76.06,91,100,10.89,CI,1601447613
552,Santa Isabel Rio Negro,-0.41,-65.02,73.69,95,100,2.01,BR,1601447613
553,Santa Rosa,14.31,121.11,91.4,70,40,10.29,PH,1601447613
554,Santiago,-33.46,-70.65,48.0,75,46,1.77,CL,1601447614
555,Santiago de Cao,-7.96,-79.24,60.6,89,100,8.9,PE,1601447614
556,Santiago del Estero,-27.8,-64.26,68.58,52,0,7.23,AR,1601447615
557,São Filipe,14.9,-24.5,78.73,77,5,11.61,CV,1601447615
558,São Gabriel da Cachoeira,-0.13,-67.09,73.38,97,100,0.51,BR,1601447615
559,São Geraldo do Araguaia,-6.4,-48.55,74.8,84,28,1.57,BR,1601447616
560,São João da Barra,-21.64,-41.05,73.65,87,98,5.73,BR,1601447616
561,São José de Ribamar,-2.56,-44.05,80.6,78,40,11.41,BR,1601447616
562,São Tomé,0.34,6.73,77.05,74,57,7.47,ST,1601447616
563,Saskylakh,71.92,114.08,32.04,90,51,3.04,RU,1601447617
564,Seaham,54.84,-1.35,48.99,80,100,1.99,GB,1601447537
565,Sebastian,35.17,-94.27,55.4,87,1,2.17,US,1601447617
566,Sechura,-5.56,-80.82,62.02,83,92,7.67,PE,1601447618
567,Sembakung,3.82,117.25,90.84,55,81,4.07,ID,1601447618
568,Sémbé,1.65,14.58,75.78,80,14,3.31,CG,1601447618
569,Semnan,35.57,53.4,64.51,29,0,7.38,IR,1601447619
570,Senno,59.53,33.92,53.17,84,5,5.77,RU,1601447619
571,Sept-Îles,50.2,-66.38,57.2,100,90,4.34,CA,1601447619
572,Severo-Kuril'sk,50.68,156.12,53.28,77,77,7.18,RU,1601447339
573,Severobaykal'sk,55.65,109.32,45.57,64,100,6.33,RU,1601447620
574,Sharan,54.82,54.0,60.57,66,1,4.32,RU,1601447620
575,Shimanovsk,52.0,127.7,55.38,51,0,2.01,RU,1601447621
576,Shintomi,32.08,131.47,71.6,88,75,4.7,JP,1601447621
577,Shurugwi,-19.67,30.01,66.02,75,99,13.04,ZW,1601447621
578,Shushenskoye,53.33,91.94,44.6,45,20,8.95,RU,1601447622
579,Sibolga,1.74,98.78,86.61,61,10,5.75,ID,1601447597
580,Singkawang,0.9,109.0,85.53,70,52,7.16,ID,1601447622
581,Sinnamary,5.38,-52.95,77.74,87,99,5.99,GF,1601447622
582,Sioux Lookout,50.1,-91.92,44.6,100,40,6.93,CA,1601447623
583,Sistranda,63.73,8.83,53.6,87,40,11.41,NO,1601447623
584,Sitka,57.05,-135.33,57.2,62,20,13.87,US,1601447500
585,Sohag,26.56,31.69,80.6,39,0,6.93,EG,1601447623
586,Sola,-13.88,167.55,80.6,78,90,6.93,VU,1601447624
587,Sørland,67.67,12.69,51.8,100,75,16.11,NO,1601447624
588,Sorong,-0.88,131.25,83.35,71,46,7.07,ID,1601447348
589,Souillac,-20.52,57.52,75.2,78,75,12.75,MU,1601447625
590,Soure,-0.72,-48.52,78.98,83,2,9.19,BR,1601447625
591,Spartanburg,34.95,-81.93,55.99,66,1,4.7,US,1601447625
592,Spring Hill,28.48,-82.53,63.0,88,75,6.93,US,1601447625
593,Srandakan,-7.94,110.25,88.0,50,42,15.21,ID,1601447626
594,Stawell,-37.05,142.77,55.09,78,100,13.47,AU,1601447626
595,Stokmarknes,68.56,14.91,51.8,100,40,2.24,NO,1601447405
596,Stranraer,54.9,-5.03,55.99,93,100,19.46,GB,1601447627
597,Stromness,58.97,-3.3,51.8,81,40,26.4,GB,1601447389
598,Sturgeon Falls,46.36,-79.93,52.0,100,90,4.7,CA,1601447380
599,Sungai Raya,0.7,108.9,86.4,65,90,6.13,ID,1601447627
600,Sur,22.57,59.53,92.93,36,0,1.39,OM,1601447628
601,Svobodnyy,51.4,128.13,56.44,47,0,1.88,RU,1601447628
602,Syamzha,60.02,41.06,52.48,71,100,6.46,RU,1601447628
603,Tabou,4.42,-7.35,76.55,90,100,10.56,CI,1601447629
604,Takoradze,4.88,-1.76,76.19,91,100,8.79,GH,1601447589
605,Talcahuano,-36.72,-73.12,48.2,87,100,10.29,CL,1601447629
606,Talnakh,69.49,88.4,30.2,86,40,17.9,RU,1601447630
607,Taoudenni,22.68,-3.98,91.13,12,0,4.12,ML,1601447630
608,Tari,12.41,4.49,77.59,78,0,9.8,NG,1601447631
609,Tasiilaq,65.61,-37.64,30.2,80,100,1.12,GL,1601447631
610,Tateyama,34.98,139.87,78.01,53,40,9.17,JP,1601447632
611,Tawang Town,27.58,91.87,70.84,45,31,7.4,IN,1601447632
612,Te Anau,-45.42,167.72,40.08,88,30,1.23,NZ,1601447633
613,Tengzhou,35.08,117.15,76.68,47,62,2.8,CN,1601447633
614,Ternate,0.8,127.4,81.45,73,100,4.36,ID,1601447633
615,Tessalit,20.2,1.01,88.05,12,0,7.25,ML,1601447634
616,Teya,60.38,92.63,35.67,83,100,9.73,RU,1601447634
617,Tezu,27.92,96.17,93.51,43,0,3.13,IN,1601447635
618,Thompson,55.74,-97.86,44.6,100,75,5.82,CA,1601447407
619,Tiébissou,7.16,-5.23,73.4,94,75,4.7,CI,1601447635
620,Tiksi,71.69,128.87,33.64,95,100,12.53,RU,1601447394
621,Tilichiki,60.47,166.1,39.72,95,100,4.07,RU,1601447636
622,Tinskoy,56.15,96.92,38.48,70,100,4.97,RU,1601447636
623,Tobias Barreto,-11.18,-38.0,65.48,93,0,4.63,BR,1601447636
624,Tobol,52.68,62.58,55.83,59,8,6.24,KZ,1601447637
625,Tokur,53.13,132.9,44.71,66,99,0.45,RU,1601447637
626,Tonantins,-2.87,-67.8,72.77,97,100,0.87,BR,1601447637
627,Tongchuanshi,35.08,109.09,69.13,60,100,6.78,CN,1601447638
628,Tongren,27.72,109.19,67.03,85,100,4.63,CN,1601447638
629,Tongzi,28.78,105.09,80.78,57,62,2.82,CN,1601447639
630,Toora-Khem,52.47,96.11,42.78,59,100,11.18,RU,1601447639
631,Torbat-e Jām,35.24,60.62,61.12,27,0,2.3,IR,1601447639
632,Torbay,47.67,-52.73,64.99,100,75,11.41,CA,1601447395
633,Totness,5.88,-56.32,78.06,86,85,7.9,SR,1601447640
634,Trairi,-3.28,-39.27,77.13,76,83,13.29,BR,1601447640
635,Trelew,-43.25,-65.31,46.8,89,98,11.03,AR,1601447640
636,Tselinnoye,53.08,85.67,43.25,62,21,8.59,RU,1601447641
637,Tual,-5.67,132.75,81.39,81,100,15.1,ID,1601447641
638,Tuatapere,-46.13,167.68,48.99,84,100,5.99,NZ,1601447642
639,Tucano,-10.96,-38.79,64.44,95,4,4.85,BR,1601447642
640,Tucumã,-0.18,-50.05,76.37,87,16,5.82,BR,1601447642
641,Tuktoyaktuk,69.45,-133.04,37.4,93,75,2.24,CA,1601447359
642,Tungor,53.38,142.96,52.07,80,83,9.22,RU,1601447643
643,Tura,25.52,90.22,84.38,85,98,1.66,IN,1601447643
644,Turaif,31.67,38.66,82.4,34,0,11.41,SA,1601447644
645,Turgoyak,55.15,60.12,60.57,64,0,2.75,RU,1601447644
646,Turka,49.15,23.03,52.0,90,100,1.01,UA,1601447644
647,Tuy Hoa,13.08,109.3,90.86,58,92,6.51,VN,1601447448
648,Tymovskoye,50.85,142.66,52.27,75,3,4.85,RU,1601447645
649,Tzaneen,-23.83,30.16,59.0,82,75,14.99,ZA,1601447645
650,Uauá,-9.84,-39.48,63.82,89,0,10.65,BR,1601447645
651,Ukiah,39.15,-123.21,69.8,40,1,1.88,US,1601447402
652,Umarizal,-5.99,-37.81,67.24,87,0,7.36,BR,1601447646
653,Umluj,25.02,37.27,96.64,30,0,1.63,SA,1601447646
654,Upernavik,72.79,-56.15,23.72,91,89,10.07,GL,1601447647
655,Uruaçu,-14.52,-49.14,76.89,20,73,2.68,BR,1601447647
656,Ushuaia,-54.8,-68.3,32.0,94,75,17.22,AR,1601447375
657,Ust'-Barguzin,53.45,108.98,47.17,65,66,3.38,RU,1601447648
658,Uyuni,-20.46,-66.83,42.26,50,4,7.31,BO,1601447649
659,Vanimo,-2.67,141.3,84.04,72,100,5.95,PG,1601447649
660,Vao,-22.67,167.48,66.58,68,0,23.06,NC,1601447649
661,Vardø,70.37,31.11,50.0,100,75,3.36,NO,1601447394
662,Hong Kong,22.29,114.16,84.0,82,24,1.01,HK,1601447531
663,Vila Velha,-20.33,-40.29,79.0,88,20,8.05,BR,1601447650
664,Villamontes,-21.25,-63.5,73.15,49,0,4.36,BO,1601447651
665,Volchansk,59.94,60.08,59.22,59,0,2.73,RU,1601447528
666,Volksrust,-27.37,29.88,51.67,81,99,6.4,ZA,1601447651
667,Vung Tau,10.35,107.08,87.87,68,100,12.15,VN,1601447429
668,Wahiawā,21.5,-158.02,80.01,73,1,4.7,US,1601447652
669,Waitati,-45.75,170.57,51.01,68,85,15.99,NZ,1601447390
670,Wajir,1.75,40.06,83.8,49,13,16.87,KE,1601447653
671,Walvis Bay,-22.96,14.51,54.0,81,1,13.87,NA,1601447653
672,Wanaka,-44.7,169.15,38.88,74,10,3.91,NZ,1601447653
673,Waterlooville,50.88,-1.03,60.01,85,100,14.0,GB,1601447654
674,Wattegama,6.8,81.48,82.4,83,75,12.75,LK,1601447654
675,Wellington,-41.29,174.78,50.0,58,0,12.75,NZ,1601447488
676,West Bay,19.37,-81.42,82.99,88,43,7.38,KY,1601447655
677,Westport,41.14,-73.36,71.6,94,90,13.87,US,1601447643
678,Whitehorse,60.72,-135.05,44.6,52,90,9.17,CA,1601447502
679,Williams Lake,52.14,-122.14,48.2,93,5,8.05,CA,1601447543
680,Winston,28.03,-82.01,70.0,88,90,12.75,US,1601447655
681,Xapuri,-10.65,-68.5,72.27,96,100,2.53,BR,1601447656
682,Yanam,16.73,82.22,84.2,79,90,5.82,IN,1601447656
683,Yasnyy,51.03,59.87,58.66,63,9,11.52,RU,1601447586
684,Yei,4.09,30.68,73.2,86,100,5.01,SS,1601447657
685,Yenagoa,4.92,6.26,76.91,90,96,3.44,NG,1601447657
686,Yerbogachën,61.28,108.01,39.18,63,27,5.99,RU,1601447658
687,Yilan,24.76,121.75,77.0,99,100,1.01,TW,1601447658
688,Yulara,-25.24,130.99,87.8,18,0,8.05,AU,1601447659
689,Yumen,40.28,97.2,63.27,28,0,13.51,CN,1601447659
690,Yuzhnyy,53.25,83.69,42.8,48,0,11.18,RU,1601447659
691,Zanzibar,-6.16,39.2,78.8,83,20,6.02,TZ,1601447660
692,Zapolyarnyy,69.42,30.81,48.2,100,75,6.93,RU,1601447660
693,Zeya,53.75,127.27,54.0,45,40,3.04,RU,1601447660
694,Zlobin,45.29,14.65,59.0,87,0,5.82,HR,1601447660
695,Zvishavane,-20.33,30.07,66.49,83,100,9.82,ZW,1601447589
